City_ID,City,Lat,Lng,Max Temp,Humidity,Cloudiness,Wind Speed,Country,Date
0,rokytne,51.2796,27.214,-0.18,97,100,5.51,UA,1704284047
1,bethel,41.3712,-73.414,0.27,83,0,1.54,US,1704283634
2,fiambala,-27.6871,-67.6149,21.68,63,69,3.05,AR,1704284048
3,tiksi,71.6872,128.8694,-36.17,100,89,1.56,RU,1704283347
4,casper,42.8666,-106.3131,-4.04,66,0,4.12,US,1704284049
5,stanley,54.868,-1.6985,6.27,95,75,1.54,GB,1704283629
6,cockburn town,21.4612,-71.1419,24.22,60,90,8.02,TC,1704284049
7,anadyr,64.75,177.4833,-15.72,91,20,5.0,RU,1704283694
8,bredasdorp,-34.5322,20.0403,22.3,74,100,7.56,ZA,1704283514
9,freetown,8.484,-13.2299,28.84,79,75,2.57,SL,1704284050
10,vorgashor,67.5833,63.95,-20.98,98,100,8.15,RU,1704283679
11,punta arenas,-53.15,-70.9167,12.06,58,0,2.57,CL,1704283645
12,hirara,24.8,125.2833,18.0,71,100,12.85,JP,1704283696
13,iskateley,67.6803,53.1512,-12.21,92,100,8.49,RU,1704283685
14,whitehorse,60.7161,-135.0538,-12.72,82,100,0.89,CA,1704283681
15,yellowknife,62.456,-114.3525,-24.77,86,48,3.58,CA,1704283634
16,borogontsy,62.6683,131.1683,-32.65,99,97,1.15,RU,1704284052
17,waitangi,-43.9535,-176.5597,11.57,86,85,2.37,NZ,1704283626
18,grytviken,-54.2811,-36.5092,1.86,66,18,1.4,GS,1704283626
19,aasiaat,68.7098,-52.8699,-13.71,86,100,4.48,GL,1704283634
20,vikhorevka,56.1201,101.1636,-4.31,89,100,5.18,RU,1704283803
21,puerto natales,-51.7236,-72.4875,14.25,44,75,1.54,CL,1704283467
22,richfield,44.8833,-93.283,0.32,82,100,3.6,US,1704283808
23,weno,7.4515,151.8468,25.97,94,100,3.6,FM,1704283739
24,muravlenko,63.7898,74.523,-31.58,99,25,4.55,RU,1704284054
25,papatowai,-46.5619,169.4708,10.42,85,96,2.05,NZ,1704283652
26,port-aux-francais,-49.35,70.2167,4.97,72,71,15.06,TF,1704283623
27,bilibino,68.0546,166.4372,-32.93,100,95,0.43,RU,1704283680
28,itoman,26.1247,127.6694,18.01,68,75,11.83,JP,1704284055
29,blackmans bay,-43.0167,147.3167,14.07,87,98,0.45,AU,1704283631
30,adamstown,-25.066,-130.1015,23.76,83,100,3.11,PN,1704283625
31,okha,53.5739,142.9478,-25.36,100,49,1.69,RU,1704284056
32,port alfred,-33.5906,26.891,20.1,91,89,2.24,ZA,1704283357
33,isafjordur,66.0755,-23.124,2.02,75,0,1.03,IS,1704283679
34,taoudenni,22.6783,-3.9836,24.2,14,100,6.79,ML,1704283766
35,bonthe,7.5264,-12.505,31.0,61,49,3.67,SL,1704284057
36,ilulissat,69.2167,-51.1,-4.99,42,0,4.63,GL,1704283638
37,longyearbyen,78.2186,15.6401,-12.09,72,100,2.06,SJ,1704283379
38,bardai,11.65,7.2333,30.77,11,3,3.19,NG,1704283755
39,edinburgh of the seven seas,-37.0676,-12.3116,17.53,99,100,5.37,SH,1704283657
40,iqaluit,63.7506,-68.5145,-21.15,71,40,14.4,CA,1704283568
41,tionk essil,12.7856,-16.5217,32.03,10,25,4.31,SN,1704284059
42,port lincoln,-34.7333,135.8667,17.26,94,100,4.57,AU,1704283633
43,ad dabbah,18.05,30.95,26.91,14,3,4.99,SD,1704284060
44,tura,25.5198,90.2201,15.61,66,0,0.67,IN,1704283707
45,khasab,26.1799,56.2477,24.2,54,0,5.54,OM,1704284061
46,college,64.8569,-147.8028,-22.03,71,20,4.63,US,1704283660
47,puerto ayora,-0.7393,-90.3518,24.19,96,46,2.68,EC,1704283670
48,wailua homesteads,22.0669,-159.378,23.44,82,40,6.69,US,1704283727
49,neftcala,39.3742,49.2472,14.04,44,100,4.09,AZ,1704284062
50,palembang,-2.9167,104.7458,28.05,89,40,2.57,ID,1704283332
51,enewetak,11.3474,162.3373,27.55,80,90,9.18,MH,1704283688
52,tucuma,-0.1833,-50.05,24.75,93,100,2.38,BR,1704284063
53,galliano,29.4422,-90.2992,10.56,93,100,5.05,US,1704284063
54,fada,9.5667,8.3,33.92,13,73,2.17,NG,1704283797
55,coxen hole,16.3244,-86.5366,21.6,78,20,2.06,HN,1704284063
56,nemuro,43.3236,145.575,-1.94,68,85,3.51,JP,1704283714
57,tayaman,13.2295,120.5726,27.24,79,76,1.5,PH,1704284064
58,nuuk,64.1835,-51.7216,1.34,40,75,3.09,GL,1704283752
59,portland,45.5234,-122.6762,7.25,85,75,4.63,US,1704283629
60,arta,39.1606,20.9853,12.8,80,98,2.15,GR,1704284065
61,atafu village,-8.5421,-172.5159,28.94,77,87,5.24,TK,1704283647
62,shindand,33.3029,62.1474,12.71,42,100,5.04,AF,1704284066
63,xuddur,4.1213,43.8894,33.5,19,77,6.83,SO,1704284066
64,invercargill,-46.4,168.35,10.65,92,98,1.88,NZ,1704283525
65,ust-nera,64.5667,143.2,-39.27,98,87,2.05,RU,1704283691
66,markala,13.7021,-6.0659,32.03,7,85,5.31,ML,1704283759
67,lazaro cardenas,17.9583,-102.2,21.54,63,92,2.45,MX,1704283723
68,albany,42.6001,-73.9662,1.13,82,100,2.66,US,1704283634
69,franceville,-1.6333,13.5836,33.88,42,62,1.25,GA,1704284068
70,happy valley-goose bay,53.3168,-60.3315,-10.83,52,75,5.14,CA,1704283783
71,port elizabeth,-33.918,25.5701,24.5,94,80,0.89,ZA,1704283529
72,sovetskaya gavan',48.9723,140.2878,-17.72,93,36,1.74,RU,1704284068
73,petropavlovsk-kamchatsky,53.0452,158.6483,-14.75,80,50,1.79,RU,1704283645
74,jamestown,42.097,-79.2353,-0.25,98,100,4.12,US,1704283664
75,pasuquin,18.3328,120.6177,25.97,65,20,6.17,PH,1704284069
76,vila velha,-20.3297,-40.2925,25.97,91,75,4.47,BR,1704284070
77,lubumbashi,-11.6609,27.4794,22.12,89,94,3.54,CD,1704284070
78,ushuaia,-54.8,-68.3,9.79,69,85,1.65,AR,1704283554
79,ribeira grande,38.5167,-28.7,15.22,94,75,7.72,PT,1704283673
80,mcalester,34.9334,-95.7697,3.05,75,75,0.0,US,1704284071
81,konarka,19.9,86.1167,24.22,58,0,6.37,IN,1704284071
82,zhezqazghan,47.7833,67.7667,-3.68,86,40,3.0,KZ,1704283739
83,korsakov,46.6328,142.7813,-18.09,82,90,0.46,RU,1704284072
84,tchintabaraden,15.8969,5.7985,29.68,8,55,5.61,NE,1704284072
85,banda aceh,5.5577,95.3222,27.44,77,100,2.87,ID,1704283775
86,namibe,-15.1961,12.1522,26.14,54,70,5.37,AO,1704283413
87,fisterra,42.9049,-9.2629,14.86,84,100,6.27,ES,1704283656
88,west mackay,-21.1481,149.1605,26.46,80,5,1.92,AU,1704284073
89,el calafate,-50.3408,-72.2768,12.53,68,99,3.38,AR,1704283649
90,andalgala,-27.5819,-66.3165,18.85,65,3,0.83,AR,1704284074
91,manicore,-5.8092,-61.3003,26.17,87,100,1.33,BR,1704284074
92,anqing,30.5092,117.0506,8.52,57,0,1.42,CN,1704284074
93,carnarvon,-24.8667,113.6333,27.73,61,0,11.6,AU,1704283525
94,hamilton,39.1834,-84.5333,-1.79,91,0,2.57,US,1704283670
95,sao vicente,-23.9631,-46.3919,30.71,60,100,1.54,BR,1704284076
96,vilyuysk,63.7553,121.6247,-36.74,100,97,1.1,RU,1704283713
97,kodinsk,58.6881,99.1844,-6.42,87,100,5.34,RU,1704283704
98,hermanus,-34.4187,19.2345,24.57,64,65,8.69,ZA,1704283687
99,cabo san lucas,22.8909,-109.9124,18.2,79,6,2.16,MX,1704283789
100,lebu,-37.6167,-73.65,15.07,85,45,6.86,CL,1704283529
101,meru,0.0463,37.6559,23.07,60,50,2.55,KE,1704284077
102,hadibu,12.65,54.0333,26.29,57,47,5.72,YE,1704283625
103,arteche,12.2645,125.4048,25.58,80,77,1.7,PH,1704283794
104,qaqortoq,60.7167,-46.0333,-6.55,71,100,4.22,GL,1704283674
105,kismayo,-0.3582,42.5454,29.3,65,10,7.63,SO,1704284078
106,adrar,20.5022,-10.0711,25.38,11,83,7.8,MR,1704283742
107,olonkinbyen,70.9221,-8.7187,-0.84,96,100,5.86,SJ,1704283666
108,polyarnyy,69.1989,33.4478,-15.83,80,100,10.83,RU,1704283673
109,jatai,-17.8814,-51.7144,23.88,81,100,0.79,BR,1704284079
110,straldzha,42.6,26.6833,7.02,82,100,2.54,BG,1704284080
111,thompson,55.7435,-97.8558,-22.92,88,58,1.78,CA,1704283677
112,west island,-12.1568,96.8225,27.99,78,40,5.66,CC,1704283687
113,hampton bays,40.869,-72.5176,5.03,81,66,2.24,US,1704284081
114,ugoofaaru,5.6667,73.0,28.14,74,38,4.54,MV,1704283773
115,sur,22.5667,59.5289,25.33,55,0,3.98,OM,1704284083
116,mangaratiba,-22.9597,-44.0406,25.48,89,100,1.62,BR,1704284083
117,haiku-pauwela,20.9219,-156.3051,22.8,72,0,3.09,US,1704283722
118,florence,43.7667,11.25,17.42,76,75,3.13,IT,1704283588
119,naxos,37.1056,25.3764,19.24,62,20,5.81,GR,1704284084
120,hithadhoo,-0.6,73.0833,28.59,72,13,2.19,MV,1704284084
121,pelabuhanratu,-6.9875,106.5514,25.74,95,100,0.27,ID,1704284085
122,margaret river,-33.95,115.0667,21.88,52,0,5.84,AU,1704283638
123,sebdou,34.637,-1.3314,17.61,18,9,2.7,DZ,1704284085
124,garachico,28.7781,-17.7646,20.06,78,75,1.54,ES,1704284086
125,grande prairie,55.1667,-118.8027,-9.9,92,100,1.54,CA,1704284034
126,kolosovka,56.4678,73.611,-32.91,98,6,2.16,RU,1704284086
127,ilha de mocambique,-15.0342,40.7358,28.94,74,77,4.29,MZ,1704284086
128,dampit,-8.2116,112.7493,23.11,95,100,1.04,ID,1704284087
129,santa cruz,-17.8,-63.1667,25.07,85,100,3.5,BO,1704283820
130,erdenet,49.0333,104.0833,-8.16,80,33,9.74,MN,1704284061
131,chupaca,-12.0667,-75.2833,11.38,81,100,1.46,PE,1704284088
132,jindabyne,-36.4167,148.6333,16.43,93,100,0.45,AU,1704284088
133,sandnessjoen,66.0217,12.6316,-6.94,32,0,3.6,NO,1704284089
134,hassi messaoud,31.6804,6.0729,17.92,42,0,1.03,DZ,1704284089
135,porbandar,21.6422,69.6093,26.38,32,0,3.73,IN,1704284089
136,chivilcoy,-34.8957,-60.0167,24.6,56,1,4.37,AR,1704284090
137,lata,40.1629,-8.3327,13.37,89,100,0.8,PT,1704284090
138,kostomuksha,64.571,30.5767,-29.98,100,98,0.89,RU,1704284091
139,san carlos,9.6612,-68.5827,24.52,74,62,0.67,VE,1704284091
140,westport,41.1415,-73.3579,0.97,82,0,1.54,US,1704283773
141,chonchi,-42.6128,-73.8092,13.56,78,77,0.91,CL,1704283802
142,eufaula,31.8913,-85.1455,1.02,86,0,0.0,US,1704284092
143,sechura,-5.5569,-80.8222,21.99,82,100,5.5,PE,1704284093
144,saldanha,-33.0117,17.9442,22.97,63,17,5.39,ZA,1704283783
145,puerto santa,-8.9906,-78.6456,21.12,88,95,2.61,PE,1704284093
146,benguela,-12.5763,13.4055,26.82,71,99,6.16,AO,1704284094
147,verkhnevilyuysk,63.4453,120.3167,-38.9,100,91,0.52,RU,1704284094
148,i-n-salah,27.1935,2.4607,20.54,21,0,6.65,DZ,1704284095
149,pekalongan,-6.8886,109.6753,25.56,83,100,1.27,ID,1704284095
150,concordia,-31.393,-58.0209,20.99,89,15,3.13,AR,1704284095
151,suleja,9.1758,7.1808,33.55,15,28,2.11,NG,1704284097
152,mbandaka,0.0487,18.2603,32.51,46,55,0.82,CD,1704284097
153,georgetown,5.4112,100.3354,29.97,70,20,2.57,MY,1704283688
154,mount pearl,47.5166,-52.7813,-0.08,84,31,2.68,CA,1704283670
155,palikir - national government center,6.9248,158.1611,27.41,83,75,1.54,FM,1704284098
156,katsuura,35.1333,140.3,11.31,81,98,4.35,JP,1704283678
157,rodolfo sanchez taboada,31.7167,-116.5667,11.16,88,21,1.4,MX,1704283782
158,klyuchi,52.2667,79.1667,-14.28,94,100,3.12,RU,1704283677
159,ingeniero guillermo n. juarez,-23.9,-61.85,27.81,62,50,2.47,AR,1704284099
160,la passe,45.5549,-0.8967,14.13,77,27,11.83,FR,1704283831
161,miri,4.4148,114.0089,28.08,83,40,2.06,MY,1704284099
162,vila franca do campo,37.7167,-25.4333,18.27,99,16,4.6,PT,1704283731
163,aioun,16.6614,-9.6149,29.48,8,95,6.24,MR,1704283699
164,ceerigaabo,10.6162,47.368,19.95,21,71,4.24,SO,1704284101
165,lompoc,34.6391,-120.4579,11.08,87,75,2.68,US,1704283731
166,udachny,66.4167,112.4,-44.37,100,90,0.54,RU,1704283411
167,dudinka,69.4058,86.1778,-35.74,99,97,2.68,RU,1704283733
168,bettiah,26.8,84.5,18.44,23,5,2.37,IN,1704283922
169,igarka,67.4667,86.5833,-38.22,100,46,0.94,RU,1704284102
170,saint-philippe,-21.3585,55.7679,30.77,75,100,5.19,RE,1704283816
171,lubu,23.1742,112.2809,15.36,54,0,2.08,CN,1704284103
172,saipan,15.1355,145.701,27.39,89,40,4.63,MP,1704283731
173,labytnangi,66.6572,66.4183,-18.57,87,83,5.26,RU,1704283654
174,grand falls-windsor,48.9332,-55.6649,-4.19,87,51,2.64,CA,1704284104
175,new norfolk,-42.7826,147.0587,14.72,98,100,1.57,AU,1704283692
176,hawaiian paradise park,19.5933,-154.9731,19.94,90,100,3.6,US,1704283373
177,bretzfeld,49.1794,9.4383,12.57,73,96,10.26,DE,1704284105
178,brisas de zicatela,15.8369,-97.0419,23.5,61,1,1.98,MX,1704283655
179,trochtelfingen,48.3084,9.2449,9.95,80,91,9.43,DE,1704284106
180,wanning,18.8003,110.3967,20.76,82,62,5.09,CN,1704284106
181,uturoa,-16.7333,-151.4333,27.2,79,98,9.35,PF,1704283678
182,geraldton,-28.7667,114.6,31.23,19,0,8.23,AU,1704284107
183,ammon,43.4696,-111.9666,-7.97,85,0,3.09,US,1704284107
184,magadan,59.5667,150.8,-25.04,85,85,2.16,RU,1704283771
185,mhasvad,17.6333,74.7833,28.15,34,10,4.25,IN,1704284108
186,jumla,29.2747,82.1838,2.76,40,3,1.45,NP,1704284108
187,magburaka,8.7167,-11.95,33.04,44,37,0.95,SL,1704284109
188,villa gesell,-37.2639,-56.973,22.81,68,23,5.54,AR,1704284109
189,port mathurin,-19.6833,63.4167,28.27,74,95,3.07,MU,1704283632
190,afaahiti,-17.75,-149.2833,23.93,84,99,9.04,PF,1704283694
191,kayangel,8.0823,134.7173,28.85,76,47,4.66,PW,1704284110
192,oyama,36.3,139.8,10.88,51,96,0.86,JP,1704284002
193,holualoa,19.6228,-155.9522,20.91,87,100,2.57,US,1704283786
194,palanga,55.9175,21.0686,-9.99,73,0,6.17,LT,1704283764
195,ancud,-41.8697,-73.8203,14.34,85,71,0.64,CL,1704283422
196,cadale,2.7603,46.3222,27.7,64,88,10.91,SO,1704283832
197,lienz,46.8289,12.769,5.73,85,21,1.35,AT,1704284111
198,elko,41.0002,-115.5012,-1.31,65,87,2.68,US,1704283890
199,touros,-5.1989,-35.4608,29.85,64,27,4.75,BR,1704284112
200,quellon,-43.1167,-73.6167,15.06,80,81,2.11,CL,1704284112
201,wenchang,30.904,118.4887,6.6,68,3,0.47,CN,1704284112
202,fale old settlement,-9.3852,-171.2468,28.84,77,48,5.39,TK,1704284113
203,tazacorte,28.629,-17.9293,21.54,89,75,1.34,ES,1704283757
204,rio grande,-32.035,-52.0986,25.06,81,96,8.17,BR,1704283658
205,salekhard,66.53,66.6019,-18.3,87,69,6.9,RU,1704284114
206,aldama,22.9167,-98.0667,18.61,91,99,2.74,MX,1704284114
207,san sebastiano,45.6497,10.2643,12.85,69,68,2.02,IT,1704284114
208,sitangkai,4.6628,119.3928,28.32,78,72,4.48,PH,1704284115
209,vilyuchinsk,52.9306,158.4028,-12.08,75,27,3.44,RU,1704283708
210,port saint john's,-31.6229,29.5448,26.39,70,42,7.02,ZA,1704284116
211,santiago de cao,-7.9589,-79.2392,22.07,78,100,2.57,PE,1704284116
212,tsiombe,-25.3,45.4833,26.6,68,89,7.62,MG,1704284116
213,buka,40.8108,69.1986,8.18,48,58,1.53,UZ,1704284117
214,yazd,31.8972,54.3675,18.06,25,0,1.03,IR,1704284117
215,sola,-13.8833,167.55,27.25,80,100,4.62,VU,1704283623
216,nabire,-3.3667,135.4833,25.12,92,100,1.36,ID,1704284118
217,guanare,9.0418,-69.7421,24.64,68,78,0.88,VE,1704284118
218,bengkulu,-3.8004,102.2655,25.85,86,100,1.44,ID,1704283922
219,al lagowa,11.4,29.1333,31.81,9,5,4.8,SD,1704284118
220,kupang,-10.1667,123.5833,28.32,89,40,1.54,ID,1704284119
221,kingston,17.997,-76.7936,22.36,96,12,1.37,JM,1704283695
222,kapa'a,22.0752,-159.319,24.18,82,40,6.69,US,1704284119
223,borovskoy,53.8,64.15,-11.91,95,100,4.69,KZ,1704284120
224,los llanos de aridane,28.6585,-17.9182,19.86,89,75,1.54,ES,1704284121
225,arraial do cabo,-22.9661,-42.0278,24.92,94,100,4.12,BR,1704283793
226,tralee,52.2704,-9.7026,9.14,93,75,1.54,IE,1704283813
227,horta,38.5333,-28.6333,14.8,94,75,7.72,PT,1704283691
228,paracatu,-17.2222,-46.8747,21.95,93,100,1.59,BR,1704284122
229,minas de marcona,-15.2119,-75.1103,17.24,83,89,3.12,PE,1704283667
230,tayshet,55.9342,98.0044,-2.79,92,100,6.85,RU,1704284123
231,pionerskiy,54.9508,20.2275,-3.25,93,100,12.25,RU,1704283691
232,trairi,-3.2778,-39.2689,29.99,64,99,3.62,BR,1704284123
233,fort st. john,56.2499,-120.8529,-13.06,85,100,3.6,CA,1704284124
234,kununurra,-15.7667,128.7333,26.99,89,40,2.06,AU,1704283668
235,xining,36.6167,101.7667,-1.59,26,0,1.28,CN,1704284124
236,east london,-33.0153,27.9116,23.97,78,60,7.96,ZA,1704283630
237,revda,56.801,59.9303,-19.56,94,100,4.86,RU,1704284125
238,badger,64.8,-147.5333,-22.07,71,20,4.63,US,1704283434
239,thulamahashi,-24.7246,31.1994,31.77,43,37,1.92,ZA,1704283654
240,dalandzadgad,43.5708,104.425,-5.41,61,56,5.31,MN,1704284125
241,nikol'sk,53.7189,46.0712,-14.31,95,100,3.79,RU,1704284126
242,susuman,62.7833,148.1667,-36.9,100,99,0.4,RU,1704284126
243,akjoujt,19.6969,-14.4164,28.14,8,0,6.75,MR,1704284127
244,karratha,-20.7377,116.8463,27.45,64,0,8.18,AU,1704284127
245,tadine,-21.55,167.8833,24.81,75,39,5.81,NC,1704284127
246,st. john's,47.5649,-52.7093,0.38,83,30,0.89,CA,1704283452
247,lihue,21.9789,-159.3672,23.77,77,40,6.69,US,1704283635
248,norrtalje,59.758,18.705,-6.1,69,100,7.46,SE,1704284128
249,bykovo,55.6361,38.0803,-19.08,76,0,4.0,RU,1704284128
250,lerwick,60.1545,-1.1494,3.0,87,100,13.39,GB,1704283627
251,vangaindrano,-23.35,47.6,25.63,88,89,5.94,MG,1704284130
252,pandan,14.0453,124.1694,26.31,84,89,3.09,PH,1704283725
253,dellys,36.9172,3.9131,18.77,47,54,3.7,DZ,1704284130
254,labrador city,52.9463,-66.9114,-22.77,99,69,1.36,CA,1704283642
255,aubenas,44.6201,4.3899,12.79,69,98,1.82,FR,1704284131
256,gadzhiyevo,69.2551,33.3362,-16.46,81,100,11.41,RU,1704283774
257,bubaque,11.2833,-15.8333,26.36,59,41,1.29,GW,1704283680
258,acarau,-2.8856,-40.12,29.03,70,97,4.08,BR,1704283513
259,luancheng,37.8792,114.6517,0.09,94,0,1.77,CN,1704284132
260,kodiak,57.79,-152.4072,2.73,93,100,13.89,US,1704283647
261,san gabriel,34.0961,-118.1058,12.31,83,100,1.54,US,1704284132
262,luhansk,48.5671,39.3171,-1.04,57,95,6.38,UA,1704284132
263,avarua,-21.2078,-159.775,25.03,88,75,4.12,CK,1704283382
264,mount gambier,-37.8333,140.7667,16.48,90,96,5.08,AU,1704283697
265,manaure,11.7751,-72.4445,25.19,85,32,3.83,CO,1704284133
266,sittwe,20.15,92.9,21.95,70,0,3.7,MM,1704283547
267,cruzeiro do sul,-29.5128,-51.9853,24.18,83,90,0.04,BR,1704284134
268,worland,44.0169,-107.9554,-6.36,92,0,3.6,US,1704284120
269,vyerkhnyadzvinsk,55.7815,27.9443,-11.29,56,100,6.19,BY,1704284134
270,oppdal,62.5943,9.6912,-16.83,88,33,7.81,NO,1704284135
271,tual,-5.6667,132.75,27.84,79,100,1.93,ID,1704283560
272,regina,50.4501,-104.6178,-9.94,80,100,2.06,CA,1704284135
273,ploneour-lanvern,47.9,-4.2833,12.18,76,100,10.8,FR,1704284136
274,tazovsky,67.4667,78.7,-27.08,96,100,3.86,RU,1704283791
275,alice springs,-23.7,133.8833,30.75,25,77,2.06,AU,1704283820
276,mossel bay,-34.1831,22.146,20.96,91,98,6.83,ZA,1704284120
277,bamboo flat,11.7,92.7167,28.05,74,20,3.09,IN,1704284137
278,alstonville,-28.8333,153.4333,22.3,95,20,1.95,AU,1704284137
279,zarghun shahr,32.8473,68.4457,6.25,37,35,2.58,AF,1704284137
280,yangambi,0.8102,24.4336,34.84,35,88,0.68,CD,1704284138
281,jinghong,21.991,100.7341,17.79,71,31,1.32,CN,1704283949
282,madimba,-10.4,40.3333,28.73,79,99,4.43,TZ,1704284138
283,san patricio,28.017,-97.5169,11.94,86,98,5.36,US,1704283653
284,filey,54.21,-0.2892,8.21,93,99,1.05,GB,1704284139
285,fort stockton,30.894,-102.8793,4.31,71,0,4.12,US,1704284140
286,miracema do tocantins,-9.5618,-48.3967,25.79,84,99,2.37,BR,1704284140
287,al hudaydah,14.7978,42.9545,27.77,60,7,3.77,YE,1704284141
288,nar'yan-mar,67.6713,53.087,-12.16,92,100,8.49,RU,1704283760
289,zhengjiatun,43.5064,123.5064,-11.31,91,9,5.38,CN,1704284141
290,grand-lahou,5.1367,-5.0242,30.05,65,76,3.18,CI,1704284142
291,kidal,18.4411,1.4078,29.1,8,66,5.41,ML,1704283641
292,emirgazi,37.9022,33.8372,10.6,58,79,3.75,TR,1704284142
293,qamdo,31.1667,97.2333,-7.7,27,86,1.36,CN,1704283729
294,kiunga,-6.1219,141.2906,24.66,98,99,1.0,PG,1704283791
295,berezovyy,51.6667,135.7,-20.42,97,100,0.55,RU,1704284143
296,machico,32.7,-16.7667,24.45,87,40,2.06,PT,1704283810
297,kamina,-8.7386,24.9906,19.63,95,100,2.3,CD,1704283827
298,remire-montjoly,4.9167,-52.2667,29.02,70,40,5.66,GF,1704283708
299,chibougamau,49.9168,-74.3659,-11.21,92,100,2.06,CA,1704283821
300,black river,18.0264,-77.8487,23.08,86,8,1.72,JM,1704284145
301,gizo,-8.103,156.8419,29.38,71,99,1.8,SB,1704284145
302,tolanaro,-25.0319,46.9987,23.78,87,99,4.11,MG,1704283452
303,crane,31.3974,-102.3501,5.25,80,2,2.47,US,1704283697
304,beyneu,45.3167,55.2,4.69,58,100,8.05,KZ,1704284147
305,majene,-3.5403,118.9707,26.9,87,94,2.0,ID,1704284148
306,flying fish cove,-10.4217,105.6791,26.82,83,100,3.09,CX,1704283812
307,kyren,51.6828,102.1408,-6.14,83,100,1.34,RU,1704284148
308,ghazni,33.5536,68.4269,4.58,38,45,0.39,AF,1704284148
309,waat,51.1454,6.4958,12.65,84,40,7.2,DE,1704284149
310,enshi,30.3,109.4833,8.91,87,89,1.14,CN,1704284149
311,novi grad,45.0458,16.3803,13.51,67,81,4.12,BA,1704284149
312,lodwar,3.1191,35.5973,36.51,22,6,5.72,KE,1704284150
313,timbuktu,16.7735,-3.0074,29.54,8,82,4.85,ML,1704284150
314,taco pozo,-25.6167,-63.2833,27.33,44,64,1.89,AR,1704284150
315,kosh-agach,50.0,88.6667,-16.5,83,81,0.45,RU,1704284151
316,la'ie,21.6477,-157.9253,23.58,75,41,3.58,US,1704283703
317,bikenibeu village,1.3673,173.1241,28.98,89,75,4.12,KI,1704283823
318,khandyga,62.6667,135.6,-30.63,100,96,0.28,RU,1704284151
319,grants,35.1473,-107.8514,-9.87,79,0,2.06,US,1704284152
320,koungou,-12.7336,45.2042,32.84,62,0,8.23,YT,1704284152
321,kavaratti,10.5669,72.642,27.69,74,90,3.72,IN,1704283552
322,kerikeri,-35.2268,173.9474,14.95,86,69,1.71,NZ,1704283786
323,mount isa,-20.7333,139.5,24.87,88,100,8.23,AU,1704283387
324,ketchikan,55.3422,-131.6461,5.99,93,100,1.54,US,1704284153
325,pacific grove,36.6177,-121.9166,10.65,87,100,2.06,US,1704283506
326,arauquita,7.0292,-71.4281,24.85,67,94,1.12,CO,1704284153
327,constantia,44.1833,28.65,9.38,65,100,4.84,RO,1704283636
328,bali,-8.5,115.0,29.57,83,100,0.73,ID,1704283877
329,ardestan,33.3761,52.3694,14.03,35,2,1.51,IR,1704284154
330,pacasmayo,-7.4006,-79.5714,21.52,84,97,4.8,PE,1704284154
331,greymouth,-42.4667,171.2,12.41,90,66,1.85,NZ,1704283759
332,mar del plata,-38.0023,-57.5575,24.18,83,10,3.13,AR,1704283876
333,utrik,11.2278,169.8474,27.13,76,65,9.19,MH,1704283663
334,vorkuta,67.5,64.0,-20.98,98,100,8.16,RU,1704284156
335,sisimiut,66.9395,-53.6735,-5.14,67,100,6.21,GL,1704283777
336,ha'il,27.5219,41.6907,15.01,72,40,3.09,SA,1704284157
337,lang son,21.8333,106.7333,13.46,83,76,1.71,VN,1704283940
338,nantucket,41.2835,-70.0995,-0.94,86,0,2.57,US,1704284081
339,tshikapa,-6.4167,20.8,30.07,55,87,1.78,CD,1704284158
340,muswellbrook,-32.2667,150.9,22.4,72,77,1.71,AU,1704284158
341,apatity,67.5641,33.4031,-20.19,81,100,1.8,RU,1704284158
342,soio,-6.1349,12.3689,27.66,75,97,5.55,AO,1704283675
343,antsiranana,-12.2787,49.2917,30.29,66,100,6.28,MG,1704284159
344,alvorada,-12.48,-49.1247,23.85,93,100,1.81,BR,1704284159
345,borazjan,29.2666,51.2159,21.2,39,6,3.9,IR,1704284159
346,santa cruz del sur,20.7147,-77.9956,18.3,84,3,5.36,CU,1704284160
347,novodvinsk,64.4165,40.8122,-21.14,99,35,1.42,RU,1704284160
348,tromso,69.6496,18.957,-7.99,73,40,3.6,NO,1704283767
349,ouesso,1.6136,16.0517,35.61,28,100,0.54,CG,1704284161
350,aksu,41.1231,80.2644,-1.18,44,100,1.3,CN,1704283965
351,amalapuram,16.5833,82.0167,23.24,69,14,2.94,IN,1704284029
352,mahanoro,-19.9,48.8,30.04,71,64,4.72,MG,1704284163
353,luderitz,-26.6481,15.1594,23.46,73,63,6.56,NA,1704283722
354,vernon,50.2581,-119.2691,2.09,93,100,0.0,CA,1704284069
355,quelimane,-17.8786,36.8883,27.87,81,83,4.74,MZ,1704284163
356,acapulco de juarez,16.8634,-99.8901,22.9,64,20,4.12,MX,1704283734
357,punta del este,-34.9667,-54.95,25.06,83,20,6.17,UY,1704284164
358,howard springs,-12.497,131.047,27.95,93,83,2.18,AU,1704283719
359,ayr,55.4627,-4.6339,8.61,93,75,2.57,GB,1704284165
360,graham,47.0529,-122.2943,7.73,93,100,0.45,US,1704284165
361,florida,28.7505,-82.5001,7.64,100,0,0.0,US,1704284166
362,union,40.6334,-74.2663,2.28,74,0,3.09,US,1704284166
363,itaituba,-4.2761,-55.9836,24.43,94,99,1.02,BR,1704283828
364,keflavik,64.0049,-22.5624,3.24,81,75,6.69,IS,1704283730
365,selfoss,63.9331,-20.9971,1.14,85,100,3.74,IS,1704283736
366,phan rang-thap cham,11.5667,108.9833,24.11,73,21,5.5,VN,1704284122
367,lushun,38.8,121.2667,-2.88,54,0,4.46,CN,1704284167
368,saint-pierre,-21.3393,55.4781,30.82,70,40,4.12,RE,1704283970
369,aktobe,50.2797,57.2072,-0.95,80,0,6.0,KZ,1704284160
370,ola,59.5833,151.2833,-25.3,90,88,2.71,RU,1704283663
371,ormara,25.2088,64.6357,23.54,62,0,3.24,PK,1704284168
372,caleta de carquin,-11.0925,-77.6267,21.53,87,88,2.35,PE,1704283749
373,mareeba,-17.0,145.4333,25.4,90,59,1.48,AU,1704284169
374,villa sandino,12.0483,-84.9936,20.27,90,75,5.88,NI,1704284169
375,campbellton,48.0075,-66.6727,-5.75,96,76,1.4,CA,1704284169
376,lorengau,-2.0226,147.2712,27.75,81,98,1.95,PG,1704283785
377,castro del rio,37.6912,-4.4806,17.43,55,67,1.77,ES,1704284171
378,turan,16.0678,108.2208,24.99,73,75,1.54,VN,1704283996
379,callao,-12.0667,-77.15,23.18,73,100,5.14,PE,1704283793
380,samarinda,-0.5,117.15,24.68,94,100,0.88,ID,1704283897
381,haysville,37.5645,-97.3523,-2.25,96,0,2.06,US,1704284172
382,suoyarvi,62.0833,32.35,-28.73,100,35,1.16,RU,1704284172
383,talnakh,69.4865,88.3972,-32.1,88,93,3.25,RU,1704283659
384,romodanovo,54.4275,45.3296,-15.51,98,100,4.86,RU,1704284173
385,la libertad,-2.2333,-80.9,24.81,83,40,5.14,EC,1704284173
386,ardakan,32.31,54.0175,17.09,28,19,1.6,IR,1704284173
387,vadso,70.0744,29.7487,-12.91,92,75,4.63,NO,1704284174
388,yaren,-0.5472,166.916,28.57,75,100,3.37,NR,1704284175
389,kalanaur,28.8333,76.4,14.09,33,0,0.63,IN,1704284175
390,ciudad lazaro cardenas,17.9583,-102.2,21.54,63,92,2.45,MX,1704283894
391,balnearia,-31.0088,-62.6673,24.76,63,95,2.25,AR,1704284176
392,cabedelo,-6.9811,-34.8339,28.37,71,18,3.83,BR,1704283710
393,phek,25.6667,94.5,6.54,78,2,0.48,IN,1704284177
394,floro,61.5996,5.0328,-1.02,34,0,8.23,NO,1704283639
395,colonia,50.9333,6.95,12.68,78,40,9.77,DE,1704283717
396,chhor,25.5167,69.7667,24.53,12,0,3.17,PK,1704284178
397,rawson,-43.3002,-65.1023,24.98,41,80,3.62,AR,1704283727
398,tabou,4.423,-7.3528,29.09,68,50,2.37,CI,1704284178
399,aiquile,-18.2041,-65.1807,17.92,78,97,1.89,BO,1704284179
400,sinabang,2.4803,96.3801,26.28,86,100,2.27,ID,1704283766
401,salvador,13.8333,-88.9167,18.22,94,8,1.33,SV,1704284180
402,leku,6.8667,38.45,25.87,36,16,2.8,ET,1704284180
403,dhidhdhoo,6.8833,73.1,27.88,78,42,5.87,MV,1704284168
404,bonito,-21.1211,-56.4819,27.6,73,36,1.52,BR,1704284181
405,bogorodskoye,56.55,37.8833,-24.86,95,73,2.36,RU,1704284181
406,castillos,-34.1667,-53.8333,22.84,65,33,5.78,UY,1704283719
407,malango,-2.9627,119.9001,21.06,97,100,0.82,ID,1704284182
408,shenjiamen,29.9576,122.298,7.93,65,5,5.82,CN,1704284182
409,brookings,44.3114,-96.7984,-2.53,100,77,2.79,US,1704284182
410,jiuquan,39.7432,98.5174,-1.48,32,86,2.31,CN,1704284182
411,haimen,23.1935,116.6142,14.94,78,0,7.69,CN,1704284183
412,newman,37.3138,-121.0208,8.49,84,82,1.05,US,1704283764
413,rocha,-34.4833,-54.3333,24.29,54,15,6.14,UY,1704284183
414,mata-utu,-13.2816,-176.1745,28.44,73,67,2.32,WF,1704283637
415,lisakovsk,52.5369,62.4936,-2.46,89,100,4.91,KZ,1704284184
416,port douglas,-16.4833,145.4667,27.71,78,88,2.47,AU,1704284184
417,prado,-17.3411,-39.2208,28.78,66,99,3.66,BR,1704284184
418,qarqaraly,49.4058,75.4742,-11.98,86,64,2.77,KZ,1704284186
419,horsham,51.064,-0.3272,12.28,75,40,6.17,GB,1704284186
420,huayacocotla,20.55,-98.4833,9.29,52,99,1.81,MX,1704284186
421,corner brook,48.9667,-57.9484,-0.91,96,100,1.46,CA,1704284186
422,moengo,5.6167,-54.4,28.02,65,50,2.32,SR,1704284187
423,drabiv,49.963,32.1529,-2.32,65,100,5.58,UA,1704284187
424,christchurch,-43.5333,172.6333,16.62,83,75,2.57,NZ,1704284100
425,kiama,-34.6833,150.8667,23.1,87,99,3.62,AU,1704284188
426,hasaki,35.7333,140.8333,9.05,65,100,4.49,JP,1704284188
427,ingeniero jacobacci,-41.3427,-69.5448,20.6,32,79,0.56,AR,1704284188
428,mandera,3.9366,41.867,36.14,17,41,5.33,KE,1704284188
429,kosikha,53.3617,84.5822,-17.25,91,100,7.0,RU,1704284189
430,nova sintra,14.8667,-24.7167,21.89,63,58,8.01,CV,1704283712
431,papao,-17.75,-149.55,24.82,84,97,10.52,PF,1704284189
432,kabalo,-6.05,26.9167,27.41,72,96,1.49,CD,1704284190
433,gunnedah,-30.9833,150.25,25.73,48,98,5.74,AU,1704284190
434,bougouni,11.417,-7.479,34.25,8,40,3.22,ML,1704284190
435,laguna,38.421,-121.4238,8.2,93,20,5.14,US,1704283659
436,north bend,43.4065,-124.2243,8.81,93,100,3.6,US,1704283769
437,azul,-36.777,-59.8585,20.49,75,2,4.86,AR,1704284191
438,gamba,-2.65,10.0,28.59,70,78,3.83,GA,1704283826
439,ghadamis,30.1337,9.5007,16.47,31,0,0.56,LY,1704284191
440,codrington,-38.2667,141.9667,16.09,91,100,7.24,AU,1704284192
441,island harbour,50.724,-1.2758,11.93,89,77,3.13,GB,1704283702
442,alofi,-19.0595,-169.9187,26.0,78,12,7.0,NU,1704283688
443,othello,46.826,-119.1753,2.38,98,100,1.39,US,1704284192
444,sao joao da barra,-21.6403,-41.0511,26.05,92,100,3.51,BR,1704283517
445,raholt,60.2667,11.1833,-9.34,81,100,5.14,NO,1704284193
446,kavieng,-2.5744,150.7967,28.07,79,84,2.61,PG,1704283675
447,viedma,-40.8135,-62.9967,26.59,36,67,6.26,AR,1704283744
448,dolores,-36.3132,-57.6792,23.91,58,14,5.65,AR,1704283817
449,baidoa,3.1138,43.6498,34.48,20,78,5.49,SO,1704284194
450,katabu,-4.9333,122.5167,25.68,89,91,1.41,ID,1704283784
451,whakatane,-37.9585,176.9854,14.87,86,54,0.62,NZ,1704283799
452,houghton,47.1219,-88.569,-1.21,81,100,7.2,US,1704284194
453,soderhamn,61.3037,17.0592,-8.36,73,100,5.16,SE,1704284195
454,okhotsk,59.3833,143.3,-30.81,82,37,3.36,RU,1704284195
455,tsetserleg,47.475,101.4542,-12.29,61,0,6.39,MN,1704284196
456,monrovia,6.3005,-10.7969,31.87,62,35,2.24,LR,1704284196
457,mersing,2.4312,103.8405,26.95,89,40,4.63,MY,1704284196
458,shagonar,51.5333,92.8,-15.56,92,100,0.32,RU,1704284197
459,olenegorsk,68.15,33.3,-19.02,83,100,3.58,RU,1704284197
460,igrim,63.1906,64.4162,-27.58,97,29,2.86,RU,1704284198
461,bay roberts,47.5999,-53.2648,0.59,84,55,2.68,CA,1704284198
462,dakhla,23.6848,-15.958,24.01,20,8,3.09,EH,1704284198
463,hargeysa,9.56,44.065,23.39,40,33,7.08,SO,1704284199
464,la palma,33.8464,-118.0467,13.38,91,100,2.06,US,1704284199
465,minden,52.2833,8.9167,9.63,89,99,8.21,DE,1704284199
466,bullsbrook,-31.6667,116.0,27.9,32,0,7.72,AU,1704284200
467,gubkinskiy,64.434,76.5026,-30.99,98,48,3.93,RU,1704284200
468,atbasar,51.8,68.3333,-8.85,95,100,3.48,KZ,1704284200
469,imbituba,-28.24,-48.6703,23.25,90,98,3.83,BR,1704284200
470,nagqu,31.5,92.0,-8.84,46,37,3.36,CN,1704284201
471,zabaykal'sk,49.6333,117.3167,-16.79,98,100,4.15,RU,1704284201
472,jieshi,22.8134,115.8257,16.86,56,0,5.27,CN,1704284201
473,broome,42.2506,-75.833,0.18,85,100,3.6,US,1704283757
474,naze,28.3667,129.4833,14.83,68,97,9.34,JP,1704283952
475,nikolayevsk-on-amure,53.1406,140.73,-22.68,99,70,1.15,RU,1704283724
476,turner,44.2565,-70.2562,-1.9,84,97,1.79,US,1704284202
477,telhara,21.0269,76.8389,27.62,35,13,3.18,IN,1704283939
478,bozova,37.3625,38.5267,9.55,69,93,1.52,TR,1704284203
479,raseiniai,55.3736,23.1217,-7.78,83,100,7.68,LT,1704284203
480,paramirim,-13.4425,-42.2389,26.47,65,99,0.61,BR,1704284203
481,leh,34.1667,77.5833,-5.06,29,51,1.11,IN,1704284203
482,perene,-10.9492,-75.2261,21.89,98,100,0.28,PE,1704284204
483,puerto baquerizo moreno,-0.9,-89.6,24.31,87,58,5.86,EC,1704283662
484,timimoun,29.2639,0.231,19.71,25,0,3.05,DZ,1704283779
485,kone,-21.0595,164.8658,25.59,82,68,2.23,NC,1704284205
486,yankton,42.8711,-97.3973,-7.71,100,100,3.6,US,1704284205
487,beloyarskiy,63.7119,66.6722,-28.33,98,70,2.24,RU,1704284206
488,maryborough,-25.5333,152.7,24.5,93,4,1.62,AU,1704284206
489,coahuayana de hidalgo,18.7,-103.6583,20.46,63,85,1.78,MX,1704284206
490,prata,-19.3072,-48.9242,24.74,78,100,2.93,BR,1704284206
491,baardheere,2.3446,42.2764,36.75,19,93,5.02,SO,1704284207
492,mugumu,-1.85,34.7,23.23,70,85,1.97,TZ,1704284207
493,zouerate,22.7187,-12.4521,24.23,11,63,7.18,MR,1704284208
494,saint-joseph,-21.3667,55.6167,30.21,73,99,1.3,RE,1704283690
495,agadez,19.75,10.25,24.73,13,10,4.46,NE,1704284208
496,scarborough,54.2797,-0.4044,8.14,93,99,0.93,GB,1704284209
497,rio rico,31.4715,-110.9765,7.55,77,0,0.0,US,1704284209
498,axim,4.8699,-2.2405,30.61,61,54,3.79,GH,1704283656
499,oranjemund,-28.55,16.4333,23.33,73,86,5.95,NA,1704284209
500,ribeira brava,32.65,-17.0667,24.45,91,95,2.07,PT,1704284210
501,tenno,39.9,139.9667,3.56,90,100,4.89,JP,1704284048
502,dryden,49.7833,-92.7503,-11.84,85,100,2.57,CA,1704283670
503,mascote,-15.5631,-39.3025,31.48,49,81,1.96,BR,1704284211
504,concepcion del oro,24.6333,-101.4167,5.82,45,2,1.83,MX,1704284211
505,coquimbo,-29.9533,-71.3436,17.43,82,49,1.83,CL,1704283697
506,salinopolis,-0.6136,-47.3561,26.86,88,95,4.01,BR,1704284213
507,tocoa,15.6833,-86.0,22.79,98,13,1.02,HN,1704284213
508,mammoth lakes,37.6485,-118.9721,-5.41,90,100,7.72,US,1704284214
509,kingscliff,-28.2667,153.5667,24.41,94,100,4.12,AU,1704284214
510,datong,40.0936,113.2914,-9.63,85,2,0.91,CN,1704283930
511,sile,41.1754,29.6133,16.43,55,100,2.68,TR,1704284215
512,cururupu,-1.8283,-44.8683,25.58,92,92,1.67,BR,1704284215
513,senillosa,-39.0,-68.4167,22.88,43,87,1.44,AR,1704284215
514,zin'kiv,50.2081,34.3638,-5.3,55,92,2.73,UA,1704284215
515,nogliki,51.8333,143.1667,-22.09,100,44,2.49,RU,1704283946
516,dunedin,-45.8742,170.5036,12.67,91,96,1.79,NZ,1704284216
517,plastun,44.7561,136.2939,-9.38,73,47,1.73,RU,1704284217
518,afonso bezerra,-5.4983,-36.5056,30.42,56,13,4.43,BR,1704284217
519,tamanrasset,22.785,5.5228,23.95,10,0,2.06,DZ,1704284217
520,urangan,-25.3,152.9,24.55,89,0,2.24,AU,1704284218
521,libreville,0.3925,9.4537,29.24,68,90,2.28,GA,1704284218
522,sosnogorsk,63.6023,53.8817,-30.26,99,60,1.79,RU,1704284218
523,mahibadhoo,3.7833,72.9667,28.38,70,47,1.85,MV,1704284219
524,balqash,46.8481,74.995,-11.67,92,0,5.0,KZ,1704284219
525,masterton,-40.9597,175.6575,16.05,98,33,1.61,NZ,1704283951
526,jayapura,-2.5333,140.7,26.66,84,100,0.62,ID,1704283801
527,sabang,5.8933,95.3214,28.21,75,97,7.18,ID,1704283594
528,kalkaman,51.9525,76.0211,-11.65,94,100,0.77,KZ,1704284220
529,bandon,51.7469,-8.7425,9.77,85,73,6.48,IE,1704284221
530,kazanlak,42.6167,25.4,10.7,72,100,0.66,BG,1704284221
531,turuntayevo,52.2,107.6167,-14.95,97,100,0.62,RU,1704284222
532,kadoma,34.7333,135.5833,10.1,49,100,2.73,JP,1704283934
533,chui,-33.6971,-53.4616,22.96,67,44,6.22,UY,1704283796
534,aydarken,39.9443,71.3429,-1.74,65,73,3.25,KG,1704284223
535,kurumkan,54.3,110.3,-14.93,83,94,1.34,RU,1704284224
536,puerto san jose,13.9256,-90.8244,23.49,69,16,1.51,GT,1704284224
537,santa cruz cabralia,-16.2781,-39.0247,29.13,70,75,6.17,BR,1704284224
538,egilsstadir,65.2653,-14.3948,0.95,93,75,4.12,IS,1704284224
539,grand baie,-20.0182,57.5802,32.26,82,99,1.79,MU,1704284225
540,sorel-tracy,46.0334,-73.1159,0.94,91,99,4.07,CA,1704284225
541,belinskiy,52.9647,43.4165,-15.05,93,100,4.97,RU,1704284225
542,vanino,49.0869,140.2543,-17.82,93,35,1.77,RU,1704284226
543,panaba,21.2833,-88.2667,15.62,87,30,2.54,MX,1704284226
544,sason,38.3364,41.413,5.79,91,100,0.31,TR,1704284226
545,prince albert,53.2001,-105.7677,-14.03,85,75,3.09,CA,1704284227
546,taroa,8.7058,171.2275,27.66,79,79,9.2,MH,1704284227
547,darjiling,27.0333,88.2667,5.7,65,72,0.97,IN,1704284227
548,valparaiso,-33.0393,-71.6273,20.26,79,100,3.09,CL,1704284099
549,mil'kovo,55.6078,37.7956,-19.2,85,91,3.41,RU,1704284228
550,pravokumskoye,44.7694,44.6472,7.01,58,97,6.2,RU,1704284228
551,international falls,48.6011,-93.411,-6.9,68,100,5.66,US,1704284229
552,afzalpur,17.2,76.35,28.38,34,3,4.09,IN,1704284229
553,mochudi,-24.4167,26.15,22.33,21,0,0.46,BW,1704284229
554,sitka,57.0531,-135.33,4.94,87,100,0.0,US,1704283668
555,tuineje,28.3237,-14.0472,19.88,51,0,1.4,ES,1704284230
556,nejo,9.5,35.5,27.36,27,4,1.96,ET,1704284230
557,necochea,-38.5473,-58.7368,22.02,54,11,5.19,AR,1704283730
558,chunskiy,56.0815,99.6342,-2.96,94,100,4.43,RU,1704284230
559,molde,62.7375,7.1591,-3.09,33,0,4.63,NO,1704284231
560,bangassou,4.7413,22.8184,37.09,16,50,1.74,CF,1704284231
561,hangu,39.2489,117.7892,-0.98,77,0,3.21,CN,1704284231
562,namsos,64.4662,11.4957,-8.97,57,0,9.26,NO,1704284232
563,zilair,52.2332,57.4392,-1.52,87,100,3.9,RU,1704284232
564,bereznik,62.8551,42.7072,-32.73,100,50,0.45,RU,1704284232
565,velikiy ustyug,60.7644,46.3106,-28.11,97,14,1.34,RU,1704284233
566,kihancha,-1.1838,34.6262,23.86,71,63,3.07,KE,1704284233
567,rakops,-21.0167,24.3333,32.72,30,8,3.2,BW,1704284233
568,taltal,-25.4,-70.4833,19.03,72,63,1.23,CL,1704283779
569,ebon,4.582,168.6964,28.55,79,5,8.62,MH,1704284234
570,hammerfest,70.6634,23.6821,0.25,74,75,7.2,NO,1704284234
571,fort bragg,35.139,-79.006,-0.1,84,54,1.92,US,1704283693
572,phang nga,8.4509,98.5298,29.02,86,86,1.32,TH,1704284019
573,yinchuan,38.4681,106.2731,0.85,25,10,2.13,CN,1704284235
574,darovskoy,58.77,47.9564,-23.32,96,43,3.49,RU,1704284235
575,nerva,37.6963,-6.5497,14.73,69,47,2.88,ES,1704284236
576,mabaruma,8.2,-59.7833,26.7,75,19,1.92,GY,1704284236
577,kapuskasing,49.4169,-82.4331,-9.64,90,100,2.49,CA,1704283690
578,levuka,50.1834,-105.4011,-9.16,75,27,1.2,CA,1704284237
579,kharp,66.8014,65.8081,-18.33,89,99,4.3,RU,1704284237
580,tamalous,36.8376,6.6402,19.58,44,65,2.66,DZ,1704284237
581,zlotow,53.3635,17.0408,5.95,93,100,2.42,PL,1704284224
582,salalah,17.0151,54.0924,25.8,54,47,3.1,OM,1704284220
583,warwick,41.7001,-71.4162,0.49,84,40,2.57,US,1704284238
584,xuchang,34.0167,113.8167,6.17,46,0,3.75,CN,1704283947
585,malanje,-9.5402,16.341,19.52,95,100,1.98,AO,1704284239
586,al jawf,29.5,38.75,15.96,45,0,1.92,SA,1704283732
587,pervomayskoye,43.919,46.7102,7.99,61,99,7.31,RU,1704284239
588,san sebastian de la gomera,28.0916,-17.1133,25.65,83,0,2.06,ES,1704284239
589,bairnsdale,-37.8333,147.6167,21.14,93,93,0.98,AU,1704283742
590,baikunthpur,23.25,82.55,20.57,45,3,2.06,IN,1704284240
591,buston,40.2342,69.6948,8.1,49,97,7.0,TJ,1704284047
